[
  {
    "lon": -117.228928,
    "lat": 32.639108,
    "name": "Point Loma (Origin)"
  },
  {
    "lon": -117.35,
    "lat": 32.53333,
    "name": "South 9 Mile Bank"
  },
  {
    "lon": -117.43333,
    "lat": 32.63333,
    "name": "North 9 Mile Bank"
  },
  {
    "lon": -117.48862,
    "lat": 32.7,
    "name": "178"
  },
  {
    "lon": -117.4,
    "lat": 32.49722,
    "name": "439"
  },
  {
    "lon": -117.63333,
    "lat": 32.50555,
    "name": "226"
  },
  {
    "lon": -117.58333,
    "lat": 32.44722,
    "name": "302"
  },
  {
    "lon": -117.25,
    "lat": 32.25,
    "name": "101"
  },
  {
    "lon": -117.71393,
    "lat": 32.69727,
    "name": "182"
  },
  {
    "lon": -117.38667,
    "lat": 32.25,
    "name": "425"
  },
  {
    "lon": -117.54668,
    "lat": 32.27004,
    "name": "371"
  },
  {
    "lon": -117.70695,
    "lat": 32.35695,
    "name": "230"
  },
  {
    "lon": -117.82333,
    "lat": 32.62667,
    "name": "The Corner"
  },
  {
    "lon": -117.07333,
    "lat": 32.11333,
    "name": "Upper Finger"
  },
  {
    "lon": -117.80937,
    "lat": 32.9437,
    "name": "209"
  },
  {
    "lon": -117.11667,
    "lat": 32.06667,
    "name": "475 Knuckle"
  },
  {
    "lon": -117.97361,
    "lat": 32.65556,
    "name": "43"
  },
  {
    "lon": -117.88333,
    "lat": 32.91388,
    "name": "181"
  },
  {
    "lon": -117.71235,
    "lat": 32.1396,
    "name": "475"
  },
  {
    "lon": -117.9,
    "lat": 32.31667,
    "name": "San Salvador Knoll"
  },
  {
    "lon": -117.93214,
    "lat": 33.05378,
    "name": "312"
  },
  {
    "lon": -116.87278,
    "lat": 31.96667,
    "name": "97"
  },
  {
    "lon": -117.86667,
    "lat": 32.13333,
    "name": "421"
  },
  {
    "lon": -117.81333,
    "lat": 32.08333,
    "name": "390"
  },
  {
    "lon": -117.5,
    "lat": 31.9,
    "name": "Hidden Bank"
  },
  {
    "lon": -118.09722,
    "lat": 32.93333,
    "name": "289"
  },
  {
    "lon": -117.8185155,
    "lat": 33.29667,
    "name": "267 – 279"
  },
  {
    "lon": -118.1,
    "lat": 32.27362,
    "name": "East Butterfly"
  },
  {
    "lon": -118.24928,
    "lat": 32.78094,
    "name": "499"
  },
  {
    "lon": -117.83333,
    "lat": 31.9,
    "name": "378"
  },
  {
    "lon": -118.08888,
    "lat": 33.2,
    "name": "277"
  },
  {
    "lon": -117.5,
    "lat": 31.76667,
    "name": "Upper 500"
  },
  {
    "lon": -118,
    "lat": 32,
    "name": "Upper Cross"
  },
  {
    "lon": -118.29717,
    "lat": 32.36666,
    "name": "West Butterfly"
  },
  {
    "lon": -118.406117,
    "lat": 32.71945,
    "name": "81"
  },
  {
    "lon": -118.18055,
    "lat": 33.24667,
    "name": "152"
  },
  {
    "lon": -117.86333,
    "lat": 31.80333,
    "name": "213"
  },
  {
    "lon": -117.99722,
    "lat": 33.4,
    "name": "14 Mile Bank"
  },
  {
    "lon": -118.24701,
    "lat": 32.06597,
    "name": "60 Mile Bank"
  },
  {
    "lon": -116.86667,
    "lat": 31.65,
    "name": "Banda Bank"
  },
  {
    "lon": -116.75,
    "lat": 31.33333,
    "name": "Peanut Bank"
  },
  {
    "lon": -116.61788,
    "lat": 31.74202,
    "name": "Punta Banda"
  },
  {
    "lon": -117.43334,
    "lat": 31.60002,
    "name": "295"
  },
  {
    "lon": -117.26388,
    "lat": 31.6,
    "name": "385"
  },
  {
    "lon": -118.39333,
    "lat": 33.03667,
    "name": "Mackerel Bank"
  },
  {
    "lon": -118.46667,
    "lat": 32.38055,
    "name": "157"
  },
  {
    "lon": -118.24445,
    "lat": 33.28333,
    "name": "The Slide"
  },
  {
    "lon": -117.20695,
    "lat": 31.55695,
    "name": "238"
  },
  {
    "lon": -117.48333,
    "lat": 31.56667,
    "name": "270"
  },
  {
    "lon": -117.84792,
    "lat": 31.65144,
    "name": "1067 Knuckle"
  },
  {
    "lon": -117.65,
    "lat": 31.58333,
    "name": "Double 220"
  },
  {
    "lon": -118.1166,
    "lat": 31.83333,
    "name": "The Airplane"
  },
  {
    "lon": -118.225,
    "lat": 33.41167,
    "name": "Avalon Bank"
  },
  {
    "lon": -118.60833,
    "lat": 32.68333,
    "name": "381"
  },
  {
    "lon": -117.08751,
    "lat": 31.45336,
    "name": "450"
  },
  {
    "lon": -118.57234,
    "lat": 32.30342,
    "name": "1010 Trench"
  },
  {
    "lon": -118.5,
    "lat": 32.06667,
    "name": "Mushroom"
  },
  {
    "lon": -118.68333,
    "lat": 32.5,
    "name": "The Condom"
  },
  {
    "lon": -118.51722,
    "lat": 33.34222,
    "name": "Farnsworth Bank"
  },
  {
    "lon": -116.76945,
    "lat": 31.38472,
    "name": "60"
  },
  {
    "lon": -116.76768,
    "lat": 31.34227,
    "name": "230"
  },
  {
    "lon": -117.18333,
    "lat": 31.3,
    "name": "1140 Finger"
  },
  {
    "lon": -118.06664,
    "lat": 31.46668,
    "name": "483 – 500"
  },
  {
    "lon": -118.2,
    "lat": 31.53333,
    "name": "437"
  },
  {
    "lon": -117.04167,
    "lat": 31.175,
    "name": "Lower 500"
  },
  {
    "lon": -118.6,
    "lat": 33.58055,
    "name": "286"
  },
  {
    "lon": -118.56388,
    "lat": 31.7,
    "name": "Dumping Grounds"
  },
  {
    "lon": -118.40012,
    "lat": 31.51244,
    "name": "372"
  },
  {
    "lon": -118.865,
    "lat": 33.24167,
    "name": "The Snail"
  },
  {
    "lon": -118.71388,
    "lat": 33.48333,
    "name": "125"
  },
  {
    "lon": -118.91667,
    "lat": 33.16388,
    "name": "474"
  },
  {
    "lon": -118.58055,
    "lat": 33.68333,
    "name": "270"
  },
  {
    "lon": -118.53333,
    "lat": 33.79167,
    "name": "307"
  },
  {
    "lon": -118.84167,
    "lat": 33.50333,
    "name": "172"
  },
  {
    "lon": -119.13334,
    "lat": 32.7,
    "name": "Tanner Bank"
  },
  {
    "lon": -119.05,
    "lat": 33.13333,
    "name": "711"
  },
  {
    "lon": -119.13055,
    "lat": 32.44028,
    "name": "Cortes Bank"
  },
  {
    "lon": -116.57083,
    "lat": 31.11509,
    "name": "52"
  },
  {
    "lon": -118.34583,
    "lat": 31.31222,
    "name": "250"
  },
  {
    "lon": -119.01667,
    "lat": 31.98333,
    "name": "The Worm"
  },
  {
    "lon": -118.70555,
    "lat": 33.73055,
    "name": "The Boot"
  },
  {
    "lon": -119.04167,
    "lat": 33.36,
    "name": "Osborn Bank"
  },
  {
    "lon": -118.47167,
    "lat": 31.29112,
    "name": "245"
  },
  {
    "lon": -118.95195,
    "lat": 33.61417,
    "name": "175"
  },
  {
    "lon": -118.93,
    "lat": 31.605,
    "name": "Bell Bank"
  },
  {
    "lon": -119.01417,
    "lat": 33.57445,
    "name": "Kidney Bank"
  },
  {
    "lon": -119.06667,
    "lat": 31.75,
    "name": "The Pistol"
  },
  {
    "lon": -118.41528,
    "lat": 31.09945,
    "name": "Sniffer"
  },
  {
    "lon": -119.42138,
    "lat": 32.87305,
    "name": "Cherry Banks"
  },
  {
    "lon": -119.16222,
    "lat": 33.73,
    "name": "17 Fa Spot"
  },
  {
    "lon": -119.26667,
    "lat": 33.73888,
    "name": "170"
  },
  {
    "lon": -119.46667,
    "lat": 31.86667,
    "name": "Elephant"
  },
  {
    "lon": -119.64,
    "lat": 32.34667,
    "name": "Northeast Bank"
  },
  {
    "lon": -119.69945,
    "lat": 32.56833,
    "name": "Hancock Bank"
  },
  {
    "lon": -119.82667,
    "lat": 33.25,
    "name": "Potato Bank"
  },
  {
    "lon": -119.9472,
    "lat": 32.96667,
    "name": "Albatross Knoll"
  },
  {
    "lon": -120.25,
    "lat": 33.61667,
    "name": "311"
  },
  {
    "lon": -120.26073,
    "lat": 33.6816,
    "name": "1908"
  },
  {
    "lon": -120.45,
    "lat": 33.14722,
    "name": "Sverdrup Bank"
  },
  {
    "lon": -120.5,
    "lat": 33.5,
    "name": "Patton Ridge"
  },
  {
    "lon": -120.97667,
    "lat": 33.06333,
    "name": "San Juan Seamount"
  },
  {
    "lon": -121.02806,
    "lat": 34.03541,
    "name": "Rodriguez Seamount"
  },
  {
    "lon": -121.06667,
    "lat": 34.36667,
    "name": "Arguello Canyon"
  },
  {
    "lon": -121.65,
    "lat": 34.75,
    "name": "The Donut"
  }
]